	{
			"region_id" : 3,
			"region_name" : "London",
			"region_country_code" : "UK",
			"region_gps_lat" : 51.515259,
			"region_gps_lon" : -0.11158,
			"region_map_zoom" : 12,
			"location_list" : [384, 361, 305, 494, 535],
			"classroom_list" : [396, 370, 313, 530, 580]
		}, {
			"region_id" : 2,
			"region_name" : "Montr\u00e9al",
			"region_country_code" : "CA",
			"region_gps_lat" : 45.535453,
			"region_gps_lon" : -73.593979,
			"region_map_zoom" : 12,
			"location_list" : [383, 531, 565],
			"classroom_list" : [394, 489, 575, 615]
		}, {
			"region_id" : 76,
			"region_name" : "Gen\u00e8ve",
			"region_country_code" : "CH",
			"region_gps_lat" : 46.210613,
			"region_gps_lon" : 6.1411703,
			"region_map_zoom" : 12,
			"location_list" : [489, 509, 519],
			"classroom_list" : [537, 547, 559]
		}, {
			"region_id" : 1,
			"region_name" : "Z\u00fcrich",
			"region_country_code" : "CH",
			"region_gps_lat" : 47.37432,
			"region_gps_lon" : 8.537021,
			"region_map_zoom" : 13,
			"location_list" : [381, 398],
			"classroom_list" : [391, 392, 414]
		}, {
			"region_id" : 68,
			"region_name" : "Alpes-Maritimes",
			"region_country_code" : "FR",
			"region_gps_lat" : 43.65123,
			"region_gps_lon" : 7.155876,
			"region_map_zoom" : 11,
			"location_list" : [82, 151, 231, 271, 85, 476],
			"classroom_list" : [83, 452, 155, 237, 517, 278, 86, 510]
		}, {
			"region_id" : 71,
			"region_name" : "Alsace",
			"region_country_code" : "FR",
			"region_gps_lat" : 48.54116,
			"region_gps_lon" : 7.702103,
			"region_map_zoom" : 10,
			"location_list" : [206, 168, 203, 142, 123, 2, 354, 174, 175, 172, 413, 479, 567, 568, 582],
			"classroom_list" : [211, 171, 207, 146, 125, 402, 238, 363, 404, 177, 178, 175, 426, 514, 617, 618, 633]
		}, {
			"region_id" : 77,
			"region_name" : "Champagne-Ardenne",
			"region_country_code" : "FR",
			"region_gps_lat" : 48.85661,
			"region_gps_lon" : 4.6373455,
			"region_map_zoom" : 8,
			"location_list" : [536, 555],
			"classroom_list" : [582, 605]
		}, {
			"region_id" : 58,
			"region_name" : "Essonne",
			"region_country_code" : "FR",
			"region_gps_lat" : 48.748945,
			"region_gps_lon" : 2.269363,
			"region_map_zoom" : 12,
			"location_list" : [532, 556, 557, 522, 590],
			"classroom_list" : [577, 606, 607, 564, 643]
		}, {
			"region_id" : 64,
			"region_name" : "Gironde",
			"region_country_code" : "FR",
			"region_gps_lat" : 44.831526,
			"region_gps_lon" : -0.573006,
			"region_map_zoom" : 12,
			"location_list" : [218, 217, 225, 447, 470, 515, 514, 569, 570],
			"classroom_list" : [224, 223, 593, 230, 470, 500, 554, 553, 620, 623]
		}, {
			"region_id" : 65,
			"region_name" : "Haute-Garonne",
			"region_country_code" : "FR",
			"region_gps_lat" : 43.604759,
			"region_gps_lon" : 1.439896,
			"region_map_zoom" : 12,
			"location_list" : [127, 293, 115, 126, 289, 395, 116, 434, 435, 446, 574, 592, 593, 594],
			"classroom_list" : [130, 381, 119, 129, 298, 411, 120, 449, 450, 469, 625, 645, 646, 647]
		}, {
			"region_id" : 54,
			"region_name" : "Hauts de Seine",
			"region_country_code" : "FR",
			"region_gps_lat" : 48.871038,
			"region_gps_lon" : 2.292709,
			"region_map_zoom" : 12,
			"location_list" : [135, 25, 95, 38, 207, 31, 360, 80, 14, 23, 79, 91, 30, 403, 471, 543, 556, 557, 566],
			"classroom_list" : [139, 21, 401, 96, 39, 212, 30, 369, 81, 24, 19, 80, 92, 29, 418, 535, 536, 502, 590, 606, 607, 616]
		}, {
			"region_id" : 60,
			"region_name" : "Ile de France",
			"region_country_code" : "FR",
			"region_gps_lat" : 48.856583,
			"region_gps_lon" : 2.345581,
			"region_map_zoom" : 10,
			"location_list" : [135, 25, 95, 38, 207, 31, 360, 98, 358, 214, 117, 260, 259, 104, 125, 261, 76, 67, 192, 80, 14, 23, 145, 51, 10, 4, 7, 8, 37, 20, 6, 32, 272, 1, 9, 347, 35, 61, 349, 153, 17, 68, 351, 15, 100, 16, 13, 64, 58, 102, 200, 93, 97, 236, 42, 18, 22, 21, 19, 87, 36, 128, 55, 66, 119, 234, 311, 79, 91, 30, 75, 389, 391, 393, 177, 49, 108, 317, 275, 409, 403, 423, 432, 433, 431, 430, 438, 440, 450, 463, 457, 471, 481, 493, 503, 521, 522, 523, 524, 532, 533, 534, 539, 543, 550, 556, 557, 561, 564, 566, 571, 573, 575, 576, 160, 581, 583, 588, 589, 590, 591, 595],
			"classroom_list" : [139, 21, 401, 96, 39, 212, 30, 369, 99, 367, 220, 121, 267, 498, 266, 107, 128, 268, 77, 67, 563, 195, 81, 24, 19, 149, 50, 567, 26, 3, 6, 398, 7, 37, 25, 619, 5, 32, 279, 1, 8, 356, 357, 35, 61, 358, 359, 157, 14, 68, 360, 12, 101, 525, 13, 11, 64, 58, 103, 399, 204, 94, 98, 243, 42, 59, 82, 124, 15, 18, 400, 17, 16, 88, 36, 131, 55, 66, 122, 241, 319, 80, 92, 29, 76, 133, 405, 407, 443, 409, 180, 48, 111, 326, 282, 422, 418, 535, 536, 435, 587, 446, 448, 445, 444, 460, 462, 473, 490, 483, 502, 516, 529, 543, 562, 564, 565, 566, 577, 578, 579, 586, 590, 602, 606, 607, 611, 614, 616, 621, 624, 626, 627, 163, 632, 634, 639, 640, 643, 644, 648]
		}, {
			"region_id" : 61,
			"region_name" : "Ille-et-Vilaine",
			"region_country_code" : "FR",
			"region_gps_lat" : 48.374497,
			"region_gps_lon" : -1.742706,
			"region_map_zoom" : 9,
			"location_list" : [369, 296, 283, 335, 345, 341, 346, 404, 315, 419, 420, 421, 277, 156, 513, 527, 526, 572, 584, 587],
			"classroom_list" : [378, 304, 292, 344, 354, 350, 355, 419, 324, 432, 433, 434, 594, 284, 159, 505, 597, 551, 560, 600, 571, 569, 596, 622, 635, 641, 642, 637]
		}, {
			"region_id" : 66,
			"region_name" : "Languedoc-Roussillon",
			"region_country_code" : "FR",
			"region_gps_lat" : 43.608612,
			"region_gps_lon" : 3.876286,
			"region_map_zoom" : 13,
			"location_list" : [140, 65, 233, 465, 525],
			"classroom_list" : [144, 65, 240, 492, 568]
		}, {
			"region_id" : 62,
			"region_name" : "Loire-Atlantique",
			"region_country_code" : "FR",
			"region_gps_lat" : 47.213971,
			"region_gps_lon" : -1.554222,
			"region_map_zoom" : 12,
			"location_list" : [146, 336, 208, 163, 472],
			"classroom_list" : [150, 345, 213, 166, 504]
		}, {
			"region_id" : 72,
			"region_name" : "Nord",
			"region_country_code" : "FR",
			"region_gps_lat" : 50.635744,
			"region_gps_lon" : 3.101063,
			"region_map_zoom" : 13,
			"location_list" : [144, 410, 436, 562, 585],
			"classroom_list" : [148, 558, 423, 456, 612, 636]
		}, {
			"region_id" : 73,
			"region_name" : "Normandie",
			"region_country_code" : "FR",
			"region_gps_lat" : 49.6,
			"region_gps_lon" : 0.57,
			"region_map_zoom" : 9,
			"location_list" : [364, 468, 518, 528],
			"classroom_list" : [373, 497, 557, 572]
		}, {
			"region_id" : 78,
			"region_name" : "Paris Banlieue Sud",
			"region_country_code" : "FR",
			"region_gps_lat" : 48.7568995,
			"region_gps_lon" : 2.3489515,
			"region_map_zoom" : 11,
			"location_list" : [556, 557, 522, 532, 207, 98, 358, 590],
			"classroom_list" : [606, 607, 564, 577, 212, 99, 367, 643]
		}, {
			"region_id" : 53,
			"region_name" : "Paris Intra Muros",
			"region_country_code" : "FR",
			"region_gps_lat" : 48.85952,
			"region_gps_lon" : 2.341118,
			"region_map_zoom" : 12,
			"location_list" : [51, 10, 4, 7, 8, 37, 20, 6, 272, 1, 9, 347, 35, 61, 349, 153, 17, 68, 351, 15, 100, 16, 13, 64, 58, 102, 200, 93, 97, 236, 42, 18, 22, 21, 19, 87, 36, 128, 55, 66, 119, 234, 311, 32, 389, 391, 393, 177, 49, 108, 317, 275, 409, 423, 430, 431, 432, 433, 438, 440, 457, 463, 450, 493, 503, 521, 523, 524, 550, 564, 573, 575, 576, 160, 583, 588, 589],
			"classroom_list" : [50, 567, 26, 3, 6, 398, 7, 37, 25, 619, 5, 279, 1, 8, 356, 357, 35, 61, 358, 359, 157, 14, 68, 360, 12, 101, 525, 13, 11, 64, 58, 103, 399, 204, 94, 98, 243, 42, 59, 82, 124, 15, 18, 400, 17, 16, 88, 36, 131, 55, 66, 122, 241, 319, 32, 405, 407, 443, 409, 180, 48, 111, 326, 282, 422, 435, 587, 444, 445, 446, 448, 460, 462, 483, 490, 473, 529, 543, 562, 565, 566, 602, 614, 624, 626, 627, 163, 634, 639, 640]
		}, {
			"region_id" : 51,
			"region_name" : "Paris Rive Droite",
			"region_country_code" : "FR",
			"region_gps_lat" : 48.869796,
			"region_gps_lon" : 2.343178,
			"region_map_zoom" : 12,
			"location_list" : [51, 10, 4, 32, 272, 1, 9, 347, 35, 61, 349, 153, 236, 42, 18, 22, 21, 19, 87, 36, 128, 55, 66, 119, 234, 311, 389, 391, 108, 275, 409, 423, 432, 433, 431, 438, 440, 457, 430, 493, 503, 521, 523, 524, 550, 564, 573, 575, 576, 583, 588, 589],
			"classroom_list" : [50, 567, 26, 3, 32, 279, 1, 8, 356, 357, 35, 61, 358, 359, 157, 243, 42, 59, 82, 124, 15, 18, 400, 17, 16, 88, 36, 131, 55, 66, 122, 241, 319, 405, 407, 443, 111, 282, 422, 435, 587, 446, 448, 445, 460, 462, 483, 444, 529, 543, 562, 565, 566, 602, 614, 624, 626, 627, 634, 639, 640]
		}, {
			"region_id" : 52,
			"region_name" : "Paris Rive Gauche",
			"region_country_code" : "FR",
			"region_gps_lat" : 48.842915,
			"region_gps_lon" : 2.329445,
			"region_map_zoom" : 13,
			"location_list" : [7, 8, 37, 20, 6, 17, 68, 351, 15, 100, 16, 13, 64, 58, 102, 200, 93, 97, 393, 177, 49, 317, 450, 463, 160],
			"classroom_list" : [6, 398, 7, 37, 25, 619, 5, 14, 68, 360, 12, 101, 525, 13, 11, 64, 58, 103, 399, 204, 94, 98, 409, 180, 48, 326, 473, 490, 163]
		}, {
			"region_id" : 63,
			"region_name" : "Poitou-Charentes",
			"region_country_code" : "FR",
			"region_gps_lat" : 46.579395,
			"region_gps_lon" : 0.341263,
			"region_map_zoom" : 13,
			"location_list" : [359, 284, 475],
			"classroom_list" : [368, 293, 509]
		}, {
			"region_id" : 67,
			"region_name" : "Provence",
			"region_country_code" : "FR",
			"region_gps_lat" : 43.395568,
			"region_gps_lon" : 5.362015,
			"region_map_zoom" : 10,
			"location_list" : [220, 155, 223, 230, 199, 205, 215, 195, 96, 301, 120, 216, 136, 106, 449, 459, 460, 488, 563, 578],
			"classroom_list" : [226, 451, 508, 202, 229, 236, 203, 210, 221, 198, 97, 309, 123, 222, 140, 109, 472, 485, 486, 524, 613, 629]
		}, {
			"region_id" : 69,
			"region_name" : "Rh\u00f4ne",
			"region_country_code" : "FR",
			"region_gps_lat" : 45.753511,
			"region_gps_lon" : 4.836216,
			"region_map_zoom" : 12,
			"location_list" : [54, 138, 343, 44, 394, 478, 517, 546, 579],
			"classroom_list" : [54, 142, 352, 527, 44, 410, 513, 556, 595, 630]
		}, {
			"region_id" : 59,
			"region_name" : "Seine Saint Denis",
			"region_country_code" : "FR",
			"region_gps_lat" : 48.880944,
			"region_gps_lon" : 2.4341716,
			"region_map_zoom" : 12,
			"location_list" : [145, 534, 571, 591, 595],
			"classroom_list" : [149, 579, 621, 644, 648]
		}, {
			"region_id" : 57,
			"region_name" : "Seine-et-Marne",
			"region_country_code" : "FR",
			"region_gps_lat" : 48.8539753,
			"region_gps_lon" : 2.7000954,
			"region_map_zoom" : 11,
			"location_list" : [481],
			"classroom_list" : [516]
		}, {
			"region_id" : 56,
			"region_name" : "Val de Marne",
			"region_country_code" : "FR",
			"region_gps_lat" : 48.807542,
			"region_gps_lon" : 2.50042,
			"region_map_zoom" : 12,
			"location_list" : [98, 358, 214, 117, 75, 522, 533, 539, 561],
			"classroom_list" : [99, 367, 220, 121, 76, 133, 564, 578, 586, 611]
		}, {
			"region_id" : 55,
			"region_name" : "Yvelines",
			"region_country_code" : "FR",
			"region_gps_lat" : 48.875103,
			"region_gps_lon" : 2.121048,
			"region_map_zoom" : 10,
			"location_list" : [260, 259, 104, 125, 261, 76, 67, 192, 581],
			"classroom_list" : [267, 498, 266, 107, 128, 268, 77, 67, 563, 195, 632]
		}, {
			"region_id" : 75,
			"region_name" : "Barcelona",
			"region_country_code" : "ES",
			"region_gps_lat" : 41.3947901,
			"region_gps_lon" : 2.1487679,
			"region_map_zoom" : 13,
			"location_list" : [485, 492, 547],
			"classroom_list" : [521, 528, 598]
		}